[
	{
		"lat": 7.287128448486328,
		"long": -31.348493576049805,
		"name": "Crystal Scoripion "
	},
	{
		"lat": -9.345914840698242,
		"long": -47.21955490112305,
		"name": "Eber"
	},
	{
		"lat": -8.2349214553833,
		"long": -48.10835266113281,
		"name": "Eber"
	},
	{
		"lat": -8.74497127532959,
		"long": -48.3204460144043,
		"name": "Eber"
	},
	{
		"lat": -8.51267147064209,
		"long": -50.10812759399414,
		"name": "Eber"
	},
	{
		"lat": 7.375550270080566,
		"long": -50.688053131103516,
		"name": "Kekeda"
	},
	{
		"lat": 7.375550270080566,
		"long": -51.0479621887207,
		"name": "Kekeda"
	},
	{
		"lat": -40,
		"long": -40,
		"name": "GiantSquid"
	},
	{
		"lat": 89.63450622558594,
		"long": 1.2413142919540405,
		"name": "Yeti"
	},
	{
		"lat": -36.7840576171875,
		"long": 10.977892875671387,
		"name": "Drake"
	},
	{
		"lat": -37.7426872253418,
		"long": 11.62117862701416,
		"name": "Drake"
	},
	{
		"lat": -38.42177200317383,
		"long": 10.299949645996094,
		"name": "Drake"
	},
	{
		"lat": -37.71080017089844,
		"long": 10.537149429321289,
		"name": "Drake"
	},
	{
		"lat": -53.2754020690918,
		"long": -5.459536075592041,
		"name": "Hydra"
	},
	{
		"lat": -52.3789176940918,
		"long": -6.443878173828125,
		"name": "Hydra"
	},
	{
		"lat": -52.47488784790039,
		"long": -5.246164321899414,
		"name": "Hydra"
	},
	{
		"lat": -54.050682067871094,
		"long": -5.775363922119141,
		"name": "Hydra"
	},
	{
		"lat": -28.56304359436035,
		"long": -11.857428550720215,
		"name": "Sentinel"
	},
	{
		"lat": -29.131057739257812,
		"long": -11.857428550720215,
		"name": "Sentinel"
	},
	{
		"lat": -29.131057739257812,
		"long": -12.190985679626465,
		"name": "Sentinel"
	},
	{
		"lat": -28.56304359436035,
		"long": -12.190985679626465,
		"name": "Sentinel"
	},
	{
		"lat": -2.962414264678955,
		"long": 28.88787078857422,
		"name": "Ancient Fire Elemental"
	},
	{
		"lat": 13.455100059509277,
		"long": 46.11171340942383,
		"name": "Buwaya"
	},
	{
		"lat": -10.691843032836914,
		"long": 47.015357971191406,
		"name": "Elder Rock Elemental"
	},
	{
		"lat": -40,
		"long": 40,
		"name": "MeanWhale"
	}
]