[
	{
		"lat": 80,
		"long": -80,
		"name": "GentleWhale"
	},
	{
		"lat": -80,
		"long": -80,
		"name": "GiantSquid"
	},
	{
		"lat": 80,
		"long": -40,
		"name": "GentleWhale"
	},
	{
		"lat": -9.518049240112305,
		"long": -48.6479606628418,
		"name": "Crystal Scoripion "
	},
	{
		"lat": 9.560028076171875,
		"long": -47.09599304199219,
		"name": "Eber"
	},
	{
		"lat": 10.671014785766602,
		"long": -47.98478317260742,
		"name": "Eber"
	},
	{
		"lat": 10.160971641540527,
		"long": -48.19688034057617,
		"name": "Eber"
	},
	{
		"lat": 10.393263816833496,
		"long": -49.98456573486328,
		"name": "Eber"
	},
	{
		"lat": 10.507057189941406,
		"long": -34.36112976074219,
		"name": "Elder Rock Elemental"
	},
	{
		"lat": -9.903042793273926,
		"long": -32.27381896972656,
		"name": "Hydra"
	},
	{
		"lat": -9.006549835205078,
		"long": -33.25816345214844,
		"name": "Hydra"
	},
	{
		"lat": -9.102520942687988,
		"long": -32.06045150756836,
		"name": "Hydra"
	},
	{
		"lat": -10.67832088470459,
		"long": -32.58964920043945,
		"name": "Hydra"
	},
	{
		"lat": 80,
		"long": 0,
		"name": "GentleWhale"
	},
	{
		"lat": 49.34281539916992,
		"long": -1.0081499814987183,
		"name": "Drake"
	},
	{
		"lat": 48.384185791015625,
		"long": -0.3648642897605896,
		"name": "Drake"
	},
	{
		"lat": 47.70509719848633,
		"long": -1.6860928535461426,
		"name": "Drake"
	},
	{
		"lat": 48.416072845458984,
		"long": -1.4488929510116577,
		"name": "Drake"
	},
	{
		"lat": 40,
		"long": 0,
		"name": "MeanWhale"
	},
	{
		"lat": 33.344478607177734,
		"long": 9.025543212890625,
		"name": "Sentinel"
	},
	{
		"lat": 32.776458740234375,
		"long": 9.025543212890625,
		"name": "Sentinel"
	},
	{
		"lat": 32.776458740234375,
		"long": 8.69199275970459,
		"name": "Sentinel"
	},
	{
		"lat": 33.344478607177734,
		"long": 8.69199275970459,
		"name": "Sentinel"
	},
	{
		"lat": 32.89501190185547,
		"long": -7.446785926818848,
		"name": "Yeti"
	},
	{
		"lat": -80,
		"long": 0,
		"name": "GiantSquid"
	},
	{
		"lat": 80,
		"long": 40,
		"name": "GentleWhale"
	},
	{
		"lat": 40,
		"long": 40,
		"name": "GentleWhale"
	},
	{
		"lat": -11.035642623901367,
		"long": 48.21931457519531,
		"name": "Ancient Fire Elemental"
	},
	{
		"lat": 10.860271453857422,
		"long": 46.93552780151367,
		"name": "Buwaya"
	},
	{
		"lat": -0.07977142930030823,
		"long": 28.807315826416016,
		"name": "Kekeda"
	},
	{
		"lat": -0.07977142930030823,
		"long": 28.447399139404297,
		"name": "Kekeda"
	},
	{
		"lat": 80,
		"long": 80,
		"name": "GentleWhale"
	},
	{
		"lat": -80,
		"long": 80,
		"name": "GiantSquid"
	}
]